[
  {
    "﻿Empty": "",
    "story": "",
    "name": "初來",
    "address": "台東縣海端鄉海端村初來部落",
    "plant": "布農語sulaiya指榕樹",
    "lat": 23.118529,
    "lng": 121.1664849
  },
  {
    "﻿Empty": "",
    "story": "",
    "name": "大竹圍/大竹里",
    "address": "今桃園市蘆竹區大竹里",
    "plant": "莿竹/刺竹",
    "lat": 25.0256543,
    "lng": 121.2554831
  },
  {
    "﻿Empty": "",
    "story": "",
    "name": "上竹圍",
    "address": "高雄市美濃區祿興里上竹圍",
    "plant": "刺竹/莿竹",
    "lat": 22.885353,
    "lng": 120.526466
  },
  {
    "﻿Empty": "",
    "story": "",
    "name": "竹圍仔",
    "address": "今苗栗縣竹南鎮竹興里",
    "plant": "莿竹/刺竹",
    "lat": 24.6938048,
    "lng": 120.8570721
  },
  {
    "﻿Empty": "",
    "story": "",
    "name": "龍眼宅",
    "address": "台南市南化區龍眼宅包含西埔里及東和里部分區域",
    "plant": "龍眼",
    "lat": 23.032287,
    "lng": 120.484409
  },
  {
    "﻿Empty": "",
    "story": "",
    "name": "大竹圍",
    "address": "高雄市旗山區新光里大竹圍",
    "plant": "莿竹/刺竹",
    "lat": 22.829102,
    "lng": 120.461775
  },
  {
    "﻿Empty": "",
    "story": "",
    "name": "金瓜寮",
    "address": "彰化縣二林鎮後厝里金瓜寮",
    "plant": "南瓜",
    "lat": 23.899622,
    "lng": 120.381879
  },
  {
    "﻿Empty": "",
    "story": "",
    "name": "葉仔林",
    "address": "今嘉義縣民雄鄉東興村葉子寮",
    "plant": "姑婆芋",
    "lat": 23.562817,
    "lng": 120.498252
  },
  {
    "﻿Empty": "",
    "story": "",
    "name": "茄苳坑",
    "address": "桃園市大溪區美華里茄苳坑",
    "plant": "茄苳",
    "lat": 24.865513,
    "lng": 121.307066
  },
  {
    "﻿Empty": "",
    "story": "",
    "name": "桐林",
    "address": "南投縣信義鄉同富村桐林/和社",
    "plant": "油桐/千年桐",
    "lat": 23.59659,
    "lng": 120.887696
  },
  {
    "﻿Empty": "",
    "story": "",
    "name": "檨子林/檨仔林",
    "address": "高雄市三民區檨子林",
    "plant": "芒果",
    "lat": 22.6483444,
    "lng": 120.3262535
  },
  {
    "﻿Empty": "",
    "story": "",
    "name": "竹林",
    "address": "宜蘭縣羅東鎮竹林里",
    "plant": "莿竹/刺竹",
    "lat": 24.6865533,
    "lng": 121.7637118
  },
  {
    "﻿Empty": "",
    "story": "",
    "name": "小柴林腳",
    "address": "嘉義縣溪口鄉溪北村小柴林腳",
    "plant": "田菁",
    "lat": 23.600006,
    "lng": 120.38136
  },
  {
    "﻿Empty": "",
    "story": "",
    "name": "樟仔園",
    "address": "宜蘭縣羅東鎮西安里樟仔園",
    "plant": "樟",
    "lat": 24.673994,
    "lng": 121.762023
  },
  {
    "﻿Empty": "",
    "story": "",
    "name": "上竹里",
    "address": "舊名赤竹仔今高雄市旗津區上竹里",
    "plant": "長枝竹",
    "lat": 22.5809157,
    "lng": 120.2923733
  },
  {
    "﻿Empty": "",
    "story": "",
    "name": "九芎坑",
    "address": "嘉義縣梅山鄉永興村九芎坑",
    "plant": "九芎",
    "lat": 23.569105,
    "lng": 120.556564
  },
  {
    "﻿Empty": "",
    "story": "",
    "name": "竹子腳/竹仔腳",
    "address": "台中市台中市大肚區瑞井里竹仔腳",
    "plant": "刺竹/莿竹",
    "lat": 24.165147,
    "lng": 120.577247
  },
  {
    "﻿Empty": "",
    "story": "",
    "name": "埔姜村",
    "address": "雲林縣褒忠鄉埔姜村舊名埔姜崙",
    "plant": "牡荊",
    "lat": 23.69733,
    "lng": 120.31104
  },
  {
    "﻿Empty": "",
    "story": "",
    "name": "管寮",
    "address": "舊名菅仔寮今台南市安定區管寮里、文科里",
    "plant": "甜根子草及五節芒",
    "lat": 23.1081147,
    "lng": 120.2195374
  },
  {
    "﻿Empty": "",
    "story": "",
    "name": "柿子寮",
    "address": "南市東山區東原里柿子寮",
    "plant": "柿子",
    "lat": 23.278032,
    "lng": 120.438789
  },
  {
    "﻿Empty": "",
    "story": "",
    "name": "蔦松村",
    "address": "嘉義縣東石鄉蔦松村",
    "plant": "蔦松(雀榕)",
    "lat": 23.4731849,
    "lng": 120.2195374
  },
  {
    "﻿Empty": "",
    "story": "",
    "name": "拉拉吾雅",
    "address": "嘉義縣阿里山鄉樂野村",
    "plant": "拉吾雅(楓香)",
    "lat": 23.4570375,
    "lng": 120.7062535
  },
  {
    "﻿Empty": "",
    "story": "",
    "name": "紅淡山",
    "address": "基隆市紅淡山)",
    "plant": "森氏紅淡比",
    "lat": 25.118868,
    "lng": 121.751929
  },
  {
    "﻿Empty": "",
    "story": "",
    "name": "林投內",
    "address": "台南市佳里區龍安里",
    "plant": "林投",
    "lat": 23.1297701,
    "lng": 120.1675902
  },
  {
    "﻿Empty": "",
    "story": "",
    "name": "林內",
    "address": "雲林縣林內鄉",
    "plant": "九芎及莿竹林",
    "lat": 23.7618842,
    "lng": 120.6084832
  },
  {
    "﻿Empty": "",
    "story": "",
    "name": "茅仔埔",
    "address": "嘉義縣梅山鄉大南村茅仔埔",
    "plant": "茅仔(五節芒)",
    "lat": 23.555269,
    "lng": 120.619705
  },
  {
    "﻿Empty": "",
    "story": "",
    "name": "桃仔寮尾",
    "address": "嘉義縣中埔鄉灣潭村桃仔寮尾",
    "plant": "桃",
    "lat": 23.41197,
    "lng": 120.578079
  },
  {
    "﻿Empty": "",
    "story": "",
    "name": "雞林里",
    "address": "新竹縣竹東鎮雞林里",
    "plant": "雞林(雞油林/櫸木林)",
    "lat": 24.7341557,
    "lng": 121.1008616
  },
  {
    "﻿Empty": "",
    "story": "",
    "name": "虷仔崙",
    "address": "台東縣金峰鄉金崙村",
    "plant": "虷仔崙/金崙(雞母珠)",
    "lat": 22.5540555,
    "lng": 120.9532123
  },
  {
    "﻿Empty": "",
    "story": "",
    "name": "馬太鞍",
    "address": "花蓮縣光復鄉馬太鞍部落",
    "plant": "馬太鞍(樹豆",
    "lat": 23.685229,
    "lng": 121.40775
  },
  {
    "﻿Empty": "",
    "story": "水林原稱為『水燦林』，往昔原為一大潟湖，陸化後多沼澤，因沼澤內水漆茂生，水漆生長於海泥中，葉有粗毛，觸之腫痛，與咬人狗同。故以水林稱之。",
    "name": "水漆林/水燦林",
    "address": "今雲林縣水林鄉",
    "plant": "水漆仔/水燦仔(土沉香)",
    "lat": 23.5723224,
    "lng": 120.244847
  }
]
